[
  {"name":"The Beaches (Queen St E)","lat":43.6689,"lng":-79.2967,"radiusKm":0.6,"alt":["The Beach Toronto","Queen Street East Beaches"]},
  {"name":"Woodbine Beach","lat":43.6626,"lng":-79.3090,"radiusKm":0.6,"alt":["Woodbine Beach Park"]},
  {"name":"Kew Gardens Park","lat":43.6698,"lng":-79.2993,"radiusKm":0.4,"alt":["Kew Gardens Toronto"]},
  {"name":"Balmy Beach Park","lat":43.6709,"lng":-79.2931,"radiusKm":0.4,"alt":["Balmy Beach"]},
  {"name":"Leslieville (Queen St E)","lat":43.6623,"lng":-79.3349,"radiusKm":0.6,"alt":["Leslieville Toronto"]},
  {"name":"The Leslieville Pumps","lat":43.6626,"lng":-79.3383,"radiusKm":0.25,"alt":["Leslieville Pumps Bar"]},
  {"name":"Toronto Sculpture Garden","lat":43.6482,"lng":-79.3707,"radiusKm":0.2,"alt":["Sculpture Garden Toronto"]},
  {"name":"The Don Valley Brick Works Park","lat":43.6890,"lng":-79.3570,"radiusKm":0.6,"alt":["Don Valley Brick Works","Evergreen Brick Works Park"]},
  {"name":"Chester Hill Lookout","lat":43.6780,"lng":-79.3142,"radiusKm":0.2,"alt":["Chester Hill Lookout Point"]},
  {"name":"The Beaches Boardwalk","lat":43.6631,"lng":-79.3049,"radiusKm":0.8,"alt":["Toronto Boardwalk Beaches"]},
  {"name":"Ashbridges Bay Park","lat":43.6579,"lng":-79.3273,"radiusKm":0.6,"alt":["Ashbridges Bay"]},
  {"name":"Tommy Thompson Park (Leslie Street Spit)","lat":43.6346,"lng":-79.3327,"radiusKm":1.6,"alt":["Leslie Street Spit","Tommy Thompson Park Toronto"]},
  {"name":"Withrow Park","lat":43.6712,"lng":-79.3387,"radiusKm":0.4,"alt":["Withrow Park Toronto"]},
  {"name":"Jimmie Simpson Park","lat":43.6629,"lng":-79.3431,"radiusKm":0.35,"alt":["Jimmie Simpson Park Toronto"]},
  {"name":"Broadview Avenue Lookout (Riverdale)","lat":43.6706,"lng":-79.3544,"radiusKm":0.25,"alt":["Broadview Lookout","Riverdale Lookout"]},
  {"name":"The Danforth (Greektown)","lat":43.6788,"lng":-79.3510,"radiusKm":0.7,"alt":["Greektown Toronto","Danforth Avenue"]},
  {"name":"Gerrard Street East (Little India)","lat":43.6714,"lng":-79.3237,"radiusKm":0.7,"alt":["Little India Toronto","Gerrard India Bazaar"]},
  {"name":"Taylor Creek Park","lat":43.6963,"lng":-79.3139,"radiusKm":0.8,"alt":["Taylor Creek Trail"]},
  {"name":"Don River Trail (Pottery Rd)","lat":43.6884,"lng":-79.3529,"radiusKm":0.6,"alt":["Don Valley Trail Pottery Road"]},
  {"name":"Ontario Science Centre","lat":43.7163,"lng":-79.3388,"radiusKm":0.4,"alt":["Science Centre Toronto"]},
  {"name":"Roncesvalles Village","lat":43.6486,"lng":-79.4506,"radiusKm":0.6,"alt":["Roncesvalles Toronto","Roncy"]},
  {"name":"Sunnyside Beach","lat":43.6375,"lng":-79.4523,"radiusKm":0.6,"alt":["Sunnyside Park Beach"]},
  {"name":"Sunnyside Pavilion","lat":43.6372,"lng":-79.4510,"radiusKm":0.25,"alt":["Sunnyside Pavilion Toronto"]},
  {"name":"The Junction","lat":43.6652,"lng":-79.4639,"radiusKm":0.7,"alt":["Junction Toronto","Dundas West Junction"]},
  {"name":"Dundas West (Ossington to Lansdowne)","lat":43.6536,"lng":-79.4377,"radiusKm":0.7,"alt":["Dundas Street West Toronto"]},
  {"name":"Bloor West Village","lat":43.6556,"lng":-79.4550,"radiusKm":0.7,"alt":["Bloor West Toronto"]},
  {"name":"Humber Bay Shores / Humber Bay Park East","lat":43.6217,"lng":-79.4786,"radiusKm":0.8,"alt":["Humber Bay Park"]},
  {"name":"Humber Bay Park West","lat":43.6237,"lng":-79.4934,"radiusKm":0.8,"alt":["Humber Bay Park West Toronto"]},
  {"name":"Palais Royale","lat":43.6365,"lng":-79.4519,"radiusKm":0.2,"alt":["Palais Royale Toronto"]},
  {"name":"Trillium Park","lat":43.6304,"lng":-79.4160,"radiusKm":0.4,"alt":["Trillium Park Ontario Place"]},
  {"name":"Ontario Place","lat":43.6295,"lng":-79.4151,"radiusKm":0.7,"alt":["Ontario Place Toronto"]},
  {"name":"Liberty Village","lat":43.6388,"lng":-79.4208,"radiusKm":0.6,"alt":["Liberty Village Toronto"]},
  {"name":"Fort York National Historic Site","lat":43.6374,"lng":-79.4069,"radiusKm":0.3,"alt":["Fort York Toronto"]},
  {"name":"Kensington Market (West Edge)","lat":43.6541,"lng":-79.4038,"radiusKm":0.35,"alt":["Kensington Toronto"]},
  {"name":"Ossington Avenue","lat":43.6516,"lng":-79.4201,"radiusKm":0.6,"alt":["Ossington Strip"]},
  {"name":"Dufferin Grove Park","lat":43.6568,"lng":-79.4325,"radiusKm":0.4,"alt":["Dufferin Grove"]},
  {"name":"Bickford Park","lat":43.6661,"lng":-79.4168,"radiusKm":0.35,"alt":["Bickford Park Toronto"]},
  {"name":"Christie Pits Park","lat":43.6647,"lng":-79.4208,"radiusKm":0.45,"alt":["Christie Pits"]},
  {"name":"Earlscourt Park","lat":43.6770,"lng":-79.4532,"radiusKm":0.6,"alt":["Earlscourt Toronto"]},
  {"name":"Corso Italia (St Clair Ave W)","lat":43.6776,"lng":-79.4460,"radiusKm":0.7,"alt":["Corso Italia Toronto","St Clair West Corso Italia"]},
  {"name":"High Park Zoo / Grenadier Pond","lat":43.6469,"lng":-79.4666,"radiusKm":0.8,"alt":["Grenadier Pond","High Park Zoo"]},
  {"name":"Etienne Brule Park","lat":43.6495,"lng":-79.4924,"radiusKm":0.5,"alt":["Étienne Brûlé Park","Humber River Park"]},
  {"name":"Humber River (Old Mill)","lat":43.6503,"lng":-79.4900,"radiusKm":0.45,"alt":["Old Mill Toronto","Old Mill Bridge"]},
  {"name":"Scarlett Woods Golf Course / Park","lat":43.6727,"lng":-79.5125,"radiusKm":0.7,"alt":["Scarlett Woods Park"]},
  {"name":"James Gardens","lat":43.6828,"lng":-79.5250,"radiusKm":0.5,"alt":["James Gardens Toronto"]}
]